[
  {
    "city": "São Paulo",
    "population": "12,325,232",
    "image": "https://upload.wikimedia.org/wikipedia/commons/thumb/1/1d/Sao_Paulo_City_Collage_2021.png/240px-Sao_Paulo_City_Collage_2021.png",
    "state": "São Paulo",
    "latitude": -23.5505,
    "longitude": -46.6333
  },
  {
    "city": "Rio de Janeiro",
    "population": "6,747,815",
    "image": "https://upload.wikimedia.org/wikipedia/commons/thumb/7/73/RiodeJaneiroMontage3.jpg/240px-RiodeJaneiroMontage3.jpg",
    "state": "Rio de Janeiro",
    "latitude": -22.9068,
    "longitude": -43.1729
  },
  {
    "city": "Brasília",
    "population": "3,055,149",
    "image": "https://upload.wikimedia.org/wikipedia/commons/thumb/6/6c/Aerea_brasilia.jpg/240px-Aerea_brasilia.jpg",
    "state": "Distrito Federal",
    "latitude": -15.8267,
    "longitude": -47.9218
  },
  {
    "city": "Salvador",
    "population": "2,886,698",
    "image": "https://upload.wikimedia.org/wikipedia/commons/thumb/4/40/Salvador_collage.png/240px-Salvador_collage.png",
    "state": "Bahia",
    "latitude": -12.9714,
    "longitude": -38.5014
  },
  {
    "city": "Fortaleza",
    "population": "2,669,342",
    "image": "https://upload.wikimedia.org/wikipedia/commons/thumb/9/9b/Fortaleza_Collage.png/240px-Fortaleza_Collage.png",
    "state": "Ceará",
    "latitude": -3.7172,
    "longitude": -38.5431
  },
  {
    "city": "Belo Horizonte",
    "population": "2,512,070",
    "image": "https://upload.wikimedia.org/wikipedia/commons/thumb/e/e5/Belo_Horizonte_%282019%29.jpg/240px-Belo_Horizonte_%282019%29.jpg",
    "state": "Minas Gerais",
    "latitude": -19.9167,
    "longitude": -43.9345
  },
  {
    "city": "Manaus",
    "population": "2,182,763",
    "image": "https://upload.wikimedia.org/wikipedia/commons/thumb/7/7f/Manaus_collage.png/240px-Manaus_collage.png",
    "state": "Amazonas",
    "latitude": -3.119,
    "longitude": -60.0217
  },
  {
    "city": "Curitiba",
    "population": "1,948,626",
    "image": "https://upload.wikimedia.org/wikipedia/commons/thumb/c/c7/Curitiba_collage.png/240px-Curitiba_collage.png",
    "state": "Paraná",
    "latitude": -25.4296,
    "longitude": -49.2719
  },
  {
    "city": "Recife",
    "population": "1,653,461",
    "image": "https://upload.wikimedia.org/wikipedia/commons/thumb/e/e2/Recife_collage.png/240px-Recife_collage.png",
    "state": "Pernambuco",
    "latitude": -8.0476,
    "longitude": -34.877
  },
  {
    "city": "Porto Alegre",
    "population": "1,488,252",
    "image": "https://upload.wikimedia.org/wikipedia/commons/thumb/6/66/Porto_Alegre_collage.png/240px-Porto_Alegre_collage.png",
    "state": "Rio Grande do Sul",
    "latitude": -30.0346,
    "longitude": -51.2177
  },
  {
    "city": "Goiânia",
    "population": "1,516,113",
    "image": "https://upload.wikimedia.org/wikipedia/commons/thumb/e/ee/Goi%C3%A2nia_collage.png/240px-Goi%C3%A2nia_collage.png",
    "state": "Goiás",
    "latitude": -16.6864,
    "longitude": -49.2643
  },
  {
    "city": "Belém",
    "population": "1,499,641",
    "image": "https://upload.wikimedia.org/wikipedia/commons/thumb/8/88/Belem_Collage.png/240px-Belem_Collage.png",
    "state": "Pará",
    "latitude": -1.4558,
    "longitude": -48.4902
  },
  {
    "city": "São Luís",
    "population": "1,101,884",
    "image": "https://upload.wikimedia.org/wikipedia/commons/thumb/2/24/Sao_Luis_collage.png/240px-Sao_Luis_collage.png",
    "state": "Maranhão",
    "latitude": -2.5387,
    "longitude": -44.2826
  },
  {
    "city": "João Pessoa",
    "population": "817,511",
    "image": "https://upload.wikimedia.org/wikipedia/commons/thumb/d/da/Joao_Pessoa_collage.png/240px-Joao_Pessoa_collage.png",
    "state": "Paraíba",
    "latitude": -7.1153,
    "longitude": -34.861
  },
  {
    "city": "Teresina",
    "population": "868,075",
    "image": "https://upload.wikimedia.org/wikipedia/commons/thumb/e/e5/Teresina_collage.png/240px-Teresina_collage.png",
    "state": "Piauí",
    "latitude": -5.0919,
    "longitude": -42.8034
  },
  {
    "city": "Campo Grande",
    "population": "906,092",
    "image": "https://upload.wikimedia.org/wikipedia/commons/thumb/3/36/Campo_Grande_collage.png/240px-Campo_Grande_collage.png",
    "state": "Mato Grosso do Sul",
    "latitude": -20.4697,
    "longitude": -54.6201
  },
  {
    "city": "Natal",
    "population": "877,640",
    "image": "https://upload.wikimedia.org/wikipedia/commons/thumb/3/38/Natal_collage.png/240px-Natal_collage.png",
    "state": "Rio Grande do Norte",
    "latitude": -5.7945,
    "longitude": -35.211
  },
  {
    "city": "Cuiabá",
    "population": "607,153",
    "image": "https://upload.wikimedia.org/wikipedia/commons/thumb/e/e5/Cuiab%C3%A1_collage.png/240px-Cuiab%C3%A1_collage.png",
    "state": "Mato Grosso",
    "latitude": -15.5989,
    "longitude": -56.0949
  },
  {
    "city": "Vitória",
    "population": "365,855",
    "image": "https://upload.wikimedia.org/wikipedia/commons/thumb/2/29/Vitoria_collage.png/240px-Vitoria_collage.png",
    "state": "Espírito Santo",
    "latitude": -20.3155,
    "longitude": -40.3128
  },
  {
    "city": "Florianópolis",
    "population": "500,973",
    "image": "https://upload.wikimedia.org/wikipedia/commons/thumb/e/e4/Florianopolis_collage.png/240px-Florianopolis_collage.png",
    "state": "Santa Catarina",
    "latitude": -27.5954,
    "longitude": -48.548
  },
  {
    "city": "Palmas",
    "population": "306,296",
    "image": "https://upload.wikimedia.org/wikipedia/commons/thumb/6/6d/Palmas_collage.png/240px-Palmas_collage.png",
    "state": "Tocantins",
    "latitude": -10.2128,
    "longitude": -48.3603
  }
]
